{
    "requestType"   : "find",
    "match"         : "Red Deer",
    "limit"         : 5,
    "found"         : 5,
    "places"        : [{"name": "Red Deer / South 40 Airstrip",
                        "latitude": "52.261944",
                        "longitude":"-113.951389",
                        "id": "CRD4",
                        "altitude":"3040",
                        "municipality":"NULL",
                        "type":"small_airport",
                        "region":"Alberta",
                        "country":"Canada"
                        },
                        {"name": "Red Deer / Truant Airfield",
                        "latitude": "52.287042840400005",
                        "longitude":"-113.913180828",
                        "id": "CRD5",
                        "altitude":"3100",
                        "municipality":"NULL",
                        "type":"small_airport",
                        "region":"Alberta",
                        "country":"Canada"
                        },
                        {"name": "Red Deer Forestry Airport",
                        "latitude": "51.65140151977539",
                        "longitude":"-115.23899841308594",
                        "id": "CFR7",
                        "altitude":"4646",
                        "municipality":"Red Deer Forestry",
                        "type":"small_airport",
                        "region":"Alberta",
                        "country":"Canada"
                        },
                        {"name": "Red Deer Regional Airport",
                        "latitude": "52.18220138549805",
                        "longitude":"-113.89399719238281",
                        "id": "CYQF",
                        "altitude":"2968",
                        "municipality":"Red Deer",
                        "type":"medium_airport",
                        "region":"Alberta",
                        "country":"Canada"
                        },
                        {"name": "Red Deer Regional Hospital Centre Heliport",
                        "latitude": "52.26190185546875",
                        "longitude":"-113.81600189208984",
                        "id": "CRD3",
                        "altitude":"2877",
                        "municipality":"Red Deer",
                        "type":"heliport",
                        "region":"Alberta",
                        "country":"Canada"
                        }]
  }