{"requestType":"find", "match":"dfgh", "limit":5, "found":0, "places":[]}
{"requestType":"find", "match":"losangeles", "limit":19, "found":6, "places":[{"name":"BahíadelosÁngelesAirport","latitude":"28.9786","longitude":"-113.560997","id":"BHL","altitude":"34","municipality":"BahíadelosÁngeles","type":"airport","region":"California","country":"UnitedStates"},{"name":"CholguahueAirport","latitude":"-37.469722747802734","longitude":"-72.13861083984375","id":"SCGH","altitude":"732","municipality":"LosAngeles","type":"airport","region":"California","country":"UnitedStates"},{"name":"LosAngelesAirstrip","latitude":"16.043668785199998","longitude":"-91.06678962710001","id":"GT-0017","altitude":"NULL","municipality":"LosAngeles","type":"airport","region":"California","country":"UnitedStates"},{"name":"LosAngelesInternationalAirport","latitude":"33.94250107","longitude":"-118.4079971","id":"KLAX","altitude":"125","municipality":"LosAngeles","type":"airport","region":"California","country":"UnitedStates"},{"name":"MaríaDoloresAirport","latitude":"-37.40169906616211","longitude":"-118.413002014","id":"SCGE","altitude":"374","municipality":"LosAngeles","type":"airport","region":"California","country":"UnitedStates"},{"name":"WhitemanAirport","latitude":"34.2593002319","longitude":"-118.413002014","id":"KWHP","altitude":"1003","municipality":"LosAngeles","type":"airport","region":"California","country":"UnitedStates"}],"type":["airport"]}
{"requestType":"find", "match":"Maurice", "limit":1, "found":3, "places":[{"name":"Riviere-St-Maurice-Aviation-Mauricie-Seaplane-Base","latitude":"46.654","longitude":"-72.704","id":"CA-0663","altitude":"325","type":"airport","municipality":"Grand-Mere","region":"Quebec","country":"Canada"}]}
{"requestType":"find", "match":"Colorado", "limit":0, "found":26, "places":[]}
{"requestType":"find", "match":"topher", "limit":10, "found":2, "places":[{"name":"StChristopher'sHospitalForChildrenHeliport","latitude":"40.00650024410625","longitude":"-75.12570190429688","id":"1PA2","altitude":"163","municipality":"Philadelphia","type":"heliport","region":"Pennsylvania","country":"UnitedStates"},{"name":"ChristopherM.RippeeMemorialAirport","latitude":"34.776667","longitude":"-75.12570190429688","id":"5OK2","altitude":"820","municipality":"Non","type":"airport","region":"Oklahoma","country":"UnitedStates"}]}
{"requestType":"find", "match":"Rice", "limit":3, "found":25, "places":[{"continent":"NA","altitude":"221","iso_country":"US","latitude":"35.0527992249","name":"Rice-BellFieldAirport","municipality":"ForrestCity","iso_region":"US-AR","index":"1","id":"14AR","longitude":"-90.6750030518"},{"continent":"NA","altitude":"660","iso_country":"US","latitude":"40.152801513671875","name":"RicePrivateHeliport","municipality":"Covington","iso_region":"US-IN","index":"2","id":"2II9","longitude":"-87.30809783935547"},{"continent":"NA","altitude":"2434","iso_country":"US","latitude":"47.998199462890625","name":"RiceRanchAirport","municipality":"GrandCoulee","iso_region":"US-WA","index":"3","id":"2WA6","longitude":"-119.08899688720703"}]}
{"requestType":"find", "match":"~~~~", "limit":0, "found":0, "places":[]}
{"requestType":"find", "match":"Oconom", "limit":5, "found":1, "places":[{"name":"OconomowocAirport","latitude":"43.13890075683594","longitude":"-88.47229766845703","id":"0WI8","altitude":"885","municipality":"Oconomowoc","region":"US-WI","country":"US"}]}
{"requestType":"find", "match":"Messi", "limit":3, "found":4, "places":[{"continent":"SA","id":"SWYB","latitude":"-23.275299072265625","longitude":"-46.25189971923828","name":"ChácaraMessiasHeliport"},{"continent":"SA","id":"SSYJ","latitude":"-23.761943817138672","longitude":"-46.75555419921875","name":"IgrejaMessiânicaMundialdoBrasilHeliport"},{"continent":"AF","id":"FAMH","latitude":"-22.356000900299996","longitude":"29.9862003326","name":"Musina(Messina)Airport"}]}
{"requestType":"find", "match":"crash", "limit":10, "found":1, "places":[{"name":"CrashInInternationalAirport","latitude":"42.7933998","longitude":"-87.8906021","id":"0WI5","altitude":"830","municipality":"Husher","type":"small_airport"}]}
{"requestType":"find", "match":"tacoma", "limit":10, "found":2, "places":[{"name":"McChordAirForceBase","latitude":"47.1376991272","longitude":"-122.475997925","id":"KTCM","altitude":"322","municipality":"Tacoma","type":"airport","region":"Washington","country":"UnitedStates"},{"name":"TacomaNarrowsAirport","latitude":"47.26789856","longitude":"-122.5780029","id":"KTIW","altitude":"294","municipality":"Tacoma","type":"airport","region":"Washington","country":"UnitedStates"}],"type":["airport"]}
{"requestType":"find", "match":"james", "limit":3, "found":35, "places":[{"id":"IE-0019","name":"BallyjamesduffAirstrip","latitude":"53.863","longitude":"-7.21383"},{"id":"CYJM","name":"FortStJamesAirport","latitude":"54.39720153808594","longitude":"-124.26300048828125"},{"id":"CAZ6","name":"FortSt.James/StuartRiverSeaplaneBase","latitude":"54.419","longitude":"-124.271"}]}
{"requestType":"find", "match":"thisDefinitelyDoesn'tExistInTheDatabaseSoNothingShouldBeFound", "limit":10, "found":0, "places":[]}
{"requestType":"find", "match":"midway", "limit":2, "found":9, "places":[{"name":"MidwayAirport","latitude":"42.215301513671875","longitude":"-84.80690002441406","id":"42MI","altitude":"963","municipality":"Albion"},{"name":"MidwayLakeAirport","latitude":"28.04199981689453","longitude":"-82.09230041503906","id":"79FD","altitude":"150","municipality":"PlantCity"}]}
{"requestType":"find", "match":"flee", "limit":10, "found":2, "places":[{"id":"EGVF","name":"FleetlandsHeliport","latitude":"50.8353004456","longitude":"-1.1691700220099999"},{"id":"IN73","name":"FleetField","latitude":"41.2223014831543","longitude":"-86.38610076904297"}]}
{"requestType":"find", "match":"Glasgow", "limit":1, "found":3, "places":[{"name":"GlasgowAirport","latitude":"55.871944","longitude":"-4.433056","id":"GLA","altitude":"15","municipality":"Paisley","type":"airport","region":"Scotland","country":"UnitedKingdom"},{"name":"GlasgowPrestwickAirport","latitude":"55.509444","longitude":"-4.594444","id":"PIK","altitude":"37","municipality":"Prestwick","type":"airport","region":"Scotland","country":"UnitedKingdom"},{"name":"GlasgowValleyCountyAirport","latitude":"48.2125","longitude":"-106.614722","id":"GGW","altitude":"2290","municipality":"ValleyCounty","type":"airport","region":"Montana","country":"UnitedStates"}]}
{"requestType":"find", "match":"hoe", "limit":1, "found":102, "places":[{"id":"0P2","name":"ShoestringAviationAirfield","latitude":"39.7947998046875","longitude":"-76.64720153808594"}]}
{“requestType”:"find", "match":"pizza", "limit":4, "found":2, "places":[{"continent":"NA","altitude":"233","iso_country":"US","latitude":"29.747699737548828","name":"Mario'sFlyingPizzaAirport","municipality":"Sealy","iso_region":"US-TX","index":"1","id":"2TA4","longitude":"-96.2927017211914"},{"continent":"SA","altitude":"3223","iso_country":"BR","latitude":"-27.21269989013672","name":"NelsonPizzaniAirport","municipality":"MonteCarlo","iso_region":"BR-SC","index":"2","id":"SIWE","longitude":"-50.95650100708008"}]}
{"requestType":"find", "match":"Rudy", "limit":10, "found":1, "places":[{"name":"RoseauMunicipalRudyBillbergField","latitude":"48.85599899","longitude":"-95.6969986","id":"KROX"}]}
{"requestType":"find", "match":"Del", "limit":10, "found":1, "places":[{"name":"DelRioInternationalAirport","latitude":"29.3705861","longitude":"-100.9202132","id":"KDRT","altitude":"300","type":"medium_airport","region":"Texas","country":"UnitedStates"}]}
{"requestType":"find", "match":"kgeg", "limit":0, "found":1, "places":[{"name":"SpokaneInternationalAirport","latitude":"47.61989974975586","longitude":"-117.53399658203125","id":"KGEG","altitude":"2376","municipality":"Spokane","type":"airport","region":"Washington","country":"UnitedStates","url":"http://en.wikipedia.org/wiki/Spokane_International_Airport"}]}
{"requestType":"find", "match":"314", "limit":10, "found":1, "places":[{"name":"G314Airport","latitude":"38.13750076293945","longitude":"127.74199676513672","id":"RK19","altitude":"600","type":"small_airport","region":"Gang'weondo","country":"SouthKorea"}]}
{"requestType":"find", "match":"zzy", "limit":5, "found":0, "places":[]}
{"requestType":"find", "match":"RapidCity", "limit":1, "found":1, "places":[{"name":"RapidCityRegionalAirport","latitude":"44.0452995300293","longitude":"-103.05699920654297","id":"KRAP","altitude":"3204","municipality":"RapidCity","type":"airport","region":"SouthDakota","country":"UnitedStates"}]}
{"requestType":"find", "match":"arizona", "limit":2, "found":7, "places":[{"name":"ArizonaHeartHospitalHeliport","latitude":"33.481300354003906","longitude":"-112.04000091552734","id":"0AZ0","altitude":"3000","municipality":"Phoenix","type":"heliport","region":"Arizona","country":"UnitedStates"},{"name":"ArizonaStatePrison","latitude":"32.828899383499994","longitude":"-109.565002441","id":"1AZ3","altitude":"5069","municipality":"Safford","type":"heliport","region":"Arizona","country":"UnitedStates"}]}
{"requestType":"find", "match":"candle", "limit":3, "found":6, "places":[{"name":"Candle2Airport","latitude":"65.907699585","longitude":"-161.925994873","id":"AK75","altitude":"15","municipality":"Candle","type":"small_airport","region":"Alaska","country":"UnitedStates"},{"name":"CandleLakeAirport","latitude":"53.7682991027832","longitude":"-105.30799865722656","id":"CCL2","altitude":"1650","municipality":"CandleLake","type":"small_airport","region":"Saskatchewan","country":"Canada"},{"name":"CandlelightFarmsAirport","latitude":"41.56679916381836","longitude":"-73.46620178222656","id":"11N","altitude":"675","municipality":"NewMilford","type":"small_airport","region":"Connecticut","country":"UnitedStates"}]}
{"requestType":"find", "match":", "limit":10, "found":50427, "places":[{"name":"TotalRfHeliport","latitude":"40.07080078125","longitude":"-74.93360137939453","id":"00A"},{"name":"LowellField","latitude":"59.94919968","longitude":"-151.695999146","id":"00AK"},{"name":"EppsAirpark","latitude":"34.86479949951172","longitude":"-86.77030181884766","id":"00AL"},{"name":"NewportHospital&ClinicHeliport","latitude":"35.608699798583984","longitude":"-91.25489807128906","id":"00AR"},{"name":"CordesAirport","latitude":"34.305599212646484","longitude":"-112.16500091552734","id":"00AZ"},{"name":"Goldstone/Gts/Airport","latitude":"35.350498199499995","longitude":"-116.888000488","id":"00CA"},{"name":"CassField","latitude":"40.62220001220703","longitude":"-104.34400177001953","id":"00CO"},{"name":"GrassPatchAirport","latitude":"28.64550018310547","longitude":"-82.21900177001953","id":"00FA"},{"name":"RinghaverHeliport","latitude":"28.846599578857422","longitude":"-82.34539794921875","id":"00FD"},{"name":"RiverOakAirport","latitude":"27.230899810791016","longitude":"-80.96920013427734","id":"00FL"}]}
{"requestType":"find", "match":"and", "limit":10, "found":2265, "places":[{"id":"00MT","name":"SandsRanchAirport","latitude":"48.537498474121094","longitude":"-109.70500183105469","altitude":"2600","type":"small_airport","municipality":"Havre","region":"Montana","country":"UnitedStates","continent":"NorthAmerica"},{"id":"01AL","name":"WareIslandAirport","latitude":"32.94599914550781","longitude":"-86.51390075683594","altitude":"344","type":"small_airport","municipality":"Clanton","region":"Alabama","country":"UnitedStates","continent":"NorthAmerica"},{"id":"01LL","name":"SchumaierRestrictedLandingArea","latitude":"38.12580108642578","longitude":"-89.46389770507812","altitude":"555","type":"small_airport","municipality":"Pinckneyville","region":"Illinois","country":"UnitedStates","continent":"NorthAmerica"},{"id":"01MA","name":"CompaqAndoverHeliport","latitude":"42.625099182128906","longitude":"-71.18009948730469","altitude":"140","type":"heliport","municipality":"Andover","region":"Massachusetts","country":"UnitedStates","continent":"NorthAmerica"},{"id":"02KS","name":"JmjLandingAirport","latitude":"39.222198486328125","longitude":"-96.0552978515625","altitude":"1170","type":"small_airport","municipality":"StMarys","region":"Kansas","country":"UnitedStates","continent":"NorthAmerica"},{"id":"02NH","name":"IroquoisLandingSeaplaneBase","latitude":"44.657100677490234","longitude":"-71.21910095214844","altitude":"1180","type":"seaplane_base","municipality":"Dummer","region":"NewHampshire","country":"UnitedStates","continent":"NorthAmerica"},{"id":"03MN","name":"NauerthLandRanchAirport","latitude":"43.62519836425781","longitude":"-95.22470092773438","altitude":"1435","type":"small_airport","municipality":"Lakefield","region":"Minnesota","country":"UnitedStates","continent":"NorthAmerica"},{"id":"03S","name":"SandyRiverAirport","latitude":"45.401798248291016","longitude":"-122.22899627685547","altitude":"704","type":"small_airport","municipality":"Sandy","region":"Oregon","country":"UnitedStates","continent":"NorthAmerica"},{"id":"03TN","name":"EaglesLandingHeliport","latitude":"35.92250061035156","longitude":"-83.57939910888672","altitude":"1000","type":"heliport","municipality":"Sevierville","region":"Tennessee","country":"UnitedStates","continent":"NorthAmerica"},{"id":"04OR","name":"CollinsLandingStrip","latitude":"44.7499008179","longitude":"-120.200996399","altitude":"1500","type":"small_airport","municipality":"Mitchell","region":"Oregon","country":"UnitedStates","continent":"NorthAmerica"}]}
{"requestType":"find", "match":"denver", "limit":3, "found":3, "places":[{"name":"DenverHealthHeliport","latitude":"39.727500915527344","longitude":"-104.99099731445312","id":"CO35","type":"heliport"},{"name":"DenverFederalCenterHelistop","latitude":"39.72330093383789","longitude":"-105.11100006103516","id":"CO39","type":"heliport"}]}
{"requestType":"find", "match":"Rice", "limit":2, "found":19, "places":[{"continent":"NorthAmerica","altitude":"500","longitude":"36.679803"latitude":"-76.027407"municipality":"VirginiaBeach"type":"small_airport",}]}
{"requestType":"find", "match":"johnny", "limit":20, "found":1, "places":[{"name":"JohnnyVoudourisHeliport","latitude":"30.23270034790039","longitude":"-97.91470336914062","id":"6TS7"}]}
{"requestType":"find", "match":"anderson", "limit":5, "found":34, "places":[{"name":"AndersonLakeAirport","id":"0AK1","latitude":"61.61690139770508","longitude":"-149.32200622558594","continent":"NA","municipality":"Wasilla"},{"name":"AndersonAirport","id":"26LL","latitude":"42.009498596191406","longitude":"-88.71759796142578","continent":"NA","municipality":"Sycamore"},{"name":"AndersonFarmAirport","id":"2MD0","latitude":"38.04869842529297","longitude":"-75.70349884033203","continent":"NA","municipality":"Marion"},{"name":"AndersonAirfield","id":"43OA","latitude":"39.580972","longitude":"-84.092194","continent":"NA","municipality":"Bellbrook"},{"name":"AndersonField","id":"52MN","latitude":"48.643001556396484","longitude":"-96.80729675292969","continent":"NA","municipality":"Kennedy"}]}
{"requestType":"find", "match":"ben", "limit":2, "found":262, "places":[{"name":"BenesServiceAirport","latitude":"41.074501037597656","longitude":"-96.90450286865234","id":"02NE"},{"name":"BentleyHeliport","latitude":"42.691200256347656","longitude":"-70.91230010986328","id":"05MA"}]}
{"requestType":"find", "match":"Total", "limit":1, "found":1, "places":[{"name":"TotalRfHeliport","latitude":"40.0708333","longitude":"-74.9336111","id":"00A","altitude":"11","municipality":"Bensalem","type":"heliport"}]}
{“requestType":"find", "match":"matthew", "limit":1, "found":6, "places":[{"latitude":"33.980899810791016","name":"MatthewsHeliport","index":"1","id":"42GA","longitude":"-84.56330108642578"}]}
{"requestType":"find", "match":"Alberta", "limit":2, "found":4, "places":[{"name":"AlbertaUltralightport","latitude":"38.39670181274414","longitude":"-84.4636001586914","id":"8KY0","type":"small_airport","country":"UnitedStates"},{"name":"AlbertaAirport","latitude":"-27.984167098999023","longitude":"28.39444351196289","id":"ZA-0017","type":"small_airport","country":"SouthAfrica"}]}
{"requestType":"find", "match":"Coco", "limit":3, "found":16, "places":[{"name":"CocobeachAirport","latitude":"1","longitude":"9.583000183105469","id":"F00C","altitude":"69","municipality":"Cocobeach","type":"small_airport"},{"name":"OdecoCocodrieHeliport","latitude":"29.249399185180664","longitude":"-90.66200256347656","id":"LA85","altitude":"3","municipality":"Cocodrie","type":"heliport"},{"name":"Tenneco-CocodrieHeliport","latitude":"29.237199783325195","longitude":"-90.66590118408203","id":"LA86","altitude":"3","municipality":"Cocodrie","type":"heliport"}]}
{"requestType":"find", "match":"Computer", "limit":3, "found":1, "places":[{"name":"ComputerAssociatesHeliport","latitude":"40.81219864","longitude":"-73.17579651","id":"6NK7","altitude":"80","type":"heliport","region":"Islandia","country":"UnitedStates"}]}
{"requestType":"find", "match":"Vancouver", "limit":10, "found":8, "places":[{"name":"Vancouver(Children&Women'sHealthCentre)Heliport","id":"CAK7","latitude":"49.2438419064","longitude":"-123.127095848","continent":"NA"},{"name":"Vancouver(GeneralHospital)Heliport","id":"CBK4","latitude":"49.261946699","longitude":"-123.124410957","continent":"NA"},{"name":"Vancouver(VancouverFilmStudios)Heliport","id":"CFS9","latitude":"49.260878059499994","longitude":"-123.028082103","continent":"NA"},{"name":"Vancouver/Burnaby(GlobalBC)Heliport","id":"cgl6","latitude":"49.2546009761","longitude":"-122.935177088","continent":"NA"},{"name":"Vancouver/CoquitlamFireandRescueHeliport","id":"cfr6","latitude":"49.2916156136","longitude":"-122.792148292","continent":"NA"},{"name":"VancouverHarbourWaterAerodrome","id":"CYHC","latitude":"49.2943992615","longitude":"-123.111000061","continent":"NA"},{"name":"VancouverInternationalAirport","id":"CYVR","latitude":"49.193901062","longitude":"-123.183998108","continent":"NA"},{"name":"VancouverInternationalSeaplaneBase","id":"CAM9","latitude":"49.177047","longitude":"-123.168154","continent":"NA"}]}
{"requestType":"find", "match":"bred", "limit":5, "found":5, "places":[{"name":"AeroportoEliasBrederAirport","latitude":"-20.259721755981445","longitude":"-42.18388748168945","id":"SNJM","altitude":"2723","municipality":"Manhuaçu","type":"small_airport"},{"name":"BredasdorpAirport","latitude":"-34.665","longitude":"20.0628","id":"ZA-0103","altitude":"30","municipality":"Bredasdorp","type":"small_airport"},{"name":"BredenburyAirport","latitude":"50.93333435058594","longitude":"-102.05000305175781","id":"CA-0060","altitude":"NULL","municipality":"NULL","type":"closed"},{"name":"BredlowFarmAirport","latitude":"34.5531005859375","longitude":"-92.09140014648438","id":"17AR","altitude":"236","municipality":"England","type":"small_airport"},{"name":"UL-GeländeBredstedt","latitude":"54.633425","longitude":"8.985745","id":"DE-0383","altitude":"92","municipality":"Bredstedt","type":"small_airport"}]}
{"requestType":"find", "match":"xzx", "limit":20, "found":0, "places":[]}
{"requestType":"find", "match":"Woosley", "limit":5, "found":1, "places":[{"name":"WoosleyAirport","latitude":"37.5005989074707","longitude":"-87.32939910888672","id":"94KY","altitude":"400","municipality":"Rumsey","type":"small_airport","region":"Kentucky","country":"UnitedStates"}]}
{"requestType":"find", "match":"200", "limit":1, "found":1, "places":[{"name":"TotalRfHeliport","latitude":"40.07080078125","longitude":"-74.93360137939453","altitude":"6","municipality":"Bensalem","type":"Heliport"}]}
{“requestType”:”find", "match":"apple", "limit":5, "found":13, "places":[{"name":"AppleAirport","latitude":"40.1432991027832","longitude":"-84.1718978881836","id":"0OH7","altitude":"1000","municipality":"Piqua","type":"small_airport","region":"US-OH","country":"US"},{"name":"Apple1Heliport","latitude":"34.26029968261719","longitude":"-84.06639862060547","id":"11GE","altitude":"1273","municipality":"Cumming","type":"heliport","region":"US-GA","country":"US"},{"name":"ApplegateAirport","latitude":"40.391998291015625","longitude":"-92.56549835205078","id":"15MO","altitude":"997","municipality":"QueenCity","type":"small_airport","region":"US-MO","country":"US"},{"name":"HanshellFlyingAppleAirport","latitude":"39.581199645996094","longitude":"-83.6510009765625","id":"84OH","altitude":"1055","municipality":"Octa","type":"small_airport","region":"US-OH","country":"US"},{"name":"AppletonField","latitude":"50.9904","longitude":"-113.3703","id":"CAP9","altitude":"3080","municipality":"Strathmore","type":"small_airport","region":"CA-AB","country":"CA"}]}
{"requestType":"find", "match":"Galveston", "limit":1, "found":5, "places":[{"name":"GalvestonAirport","latitude":"40.584201812744147","longitude":"-86.25689697265625","id":"5I6","altitude":"786","municipality":"Galveston","type":"small_airport"}]}
{"requestType":"find", "match":"London", "limit":1, "found":1, "places":[{"id":"CLC2","name":"London/ChapeskieField","latitude":"43.0682983398","longitude":"-81.1256027222","altitude":"930","type":"small_airport","country":"Canada","url":"https://en.wikipedia.org/wiki/London/Chapeskie_Field_Airport"}],"type":["airport"],"where":["Canada"]}
{"requestType":"find", "match":"matt", "limit":1, "found":2, "places":[{"name":"MattixRunHeliport","latitude":"39.48500061035156","longitude":"-74.46720123291016","id":"2JY2","altitude":"35","municipality":"Galloway","type":"heliport","region":"NewJersey","country":"UnitedStates"}],"type":["heliport"],"where":["UnitedStates"]}
{"requestType":"find", "match":"nin", "limit":1, "found":190, "places":[{"name":"LightningBoltFieldAirport","latitude":"44.4011001587","longitude":"-72.26360321039999","id":"04VT","altitude":"2156","municipality":"Cabot"}]}
{"requestType":"find", "match":"Denver", "limit":3, "found":7, "places":[{"name":"DenverHealthHeliport","latitude":"39.727500915527344","longitude":"-104.99099731445312","id":"CO35","altitude":"5212","municipality":"Denver","type":"heliport"},{"name":"DenverFederalCenterHelistop","latitude":"39.72330093383789","longitude":"-105.11100006103516","id":"CO39","altitude":"5550","municipality":"Denver","type":"heliport"},{"name":"DenverPoliceDepartment-District3Heliport","latitude":"39.6875","longitude":"-104.95999908447266","id":"CO41","altitude":"5340","municipality":"Denver","type":"heliport"}]}
{"requestType":"find", "match":"tamworth", "limit":6, "found":2, "places":[{"name":"TamworthAirport","latitude":"-31.0839004517","longitude":"150.847000122","id":"YSTW","altitude":"1334","municipality":"Tamworth","type":"airport","region":"NewSouthWales","country":"Australia"},{"name":"TamworthHospitalHelipad","latitude":"-31.07457","longitude":"150.92641","id":"YXTW","altitude":"1356","municipality":"Tamworth","type":"heliport","region":"NewSouthWales","country":"Australia"}]}
{“requestType":"find", "match":"hospital", "limit":15, "found":2168, "places":[{"continent":"NA","altitude":"237","iso_country":"US","latitude":"35.608699798583984","name":"NewportHospital&ClinicHeliport","municipality":"Newport","iso_region":"US-AR","index":"1","id":"00AR","longitude":"-91.25489807128906"},{"continent":"NA","altitude":"905","iso_country":"US","latitude":"39.74530029296875","name":"MiamiValleyHospitalHeliport","municipality":"Dayton","iso_region":"US-OH","index":"2","id":"00OI","longitude":"-84.1874008178711"},{"continent":"NA","altitude":"19","iso_country":"US","latitude":"29.737699508666992","name":"SanJacintoMethodistHospitalHeliport","municipality":"Baytown","iso_region":"US-TX","index":"3","id":"00TX","longitude":"-94.9802017211914"},{"continent":"NA","altitude":"400","iso_country":"US","latitude":"34.047298431396484","name":"CommunityHospitalofDeQueenHeliport","municipality":"DeQueen","iso_region":"US-AR","index":"4","id":"01AR","longitude":"-94.35489654541016"},{"continent":"NA","altitude":"10175","iso_country":"US","latitude":"39.24530029296875","name":"StVincentGeneralHospitalHeliport","municipality":"Leadville","iso_region":"US-CO","index":"5","id":"01CO","longitude":"-106.24600219726562"},{"continent":"NA","altitude":"86","iso_country":"US","latitude":"28.666400909423828","name":"FloridaHospital-AltamonteHeliport","municipality":"AltamonteSprings","iso_region":"US-FL","index":"6","id":"01FD","longitude":"-81.37059783935547"},{"continent":"NA","altitude":"583","iso_country":"US","latitude":"40.45859909057617","name":"HoopestonCommunityMemorialHospitalHeliport","municipality":"Hoopeston","iso_region":"US-IL","index":"7","id":"01IL","longitude":"-87.65950012207031"},{"continent":"NA","altitude":"890","iso_country":"US","latitude":"40.13090133666992","name":"CommunityHospitalHeliport","municipality":"Anderson","iso_region":"US-IN","index":"8","id":"01IN","longitude":"-85.69580078125"},{"continent":"NA","altitude":"419","iso_country":"US","latitude":"37.051700592041016","name":"LourdesHospitalHeliport","municipality":"Paducah","iso_region":"US-KY","index":"9","id":"01KY","longitude":"-88.64689636230469"},{"continent":"NA","altitude":"100","iso_country":"US","latitude":"41.70009994506836","name":"VassarHospitalHeliport","municipality":"Poughkeepsie","iso_region":"US-NY","index":"10","id":"01NY","longitude":"-73.94960021972656"},{"continent":"NA","altitude":"1140","iso_country":"US","latitude":"40.73059844970703","name":"GalionCommunityHospitalHeliport","municipality":"Galion","iso_region":"US-OH","index":"11","id":"01OI","longitude":"-82.80159759521484"},{"continent":"NA","altitude":"675","iso_country":"US","latitude":"32.72850036621094","name":"StJosephHospitalHeliport","municipality":"FortWorth","iso_region":"US-TX","index":"12","id":"01TS","longitude":"-97.32450103759766"},{"continent":"NA","altitude":"103","iso_country":"US","latitude":"48.213401794433594","name":"WhidbeyGeneralHospitalHeliport","municipality":"Coupeville","iso_region":"US-WA","index":"13","id":"01WN","longitude":"-122.68499755859375"},{"continent":"NA","altitude":"1160","iso_country":"US","latitude":"42.05609893798828","name":"BooneCountyHospitalHeliport","municipality":"Boone","iso_region":"US-IA","index":"14","id":"02IA","longitude":"-93.87799835205078"},{"continent":"NA","altitude":"628","iso_country":"US","latitude":"34.6624984741","name":"JacksonCountyHospitalHeliport","municipality":"Scottsboro","iso_region":"US-AL","index":"15","id":"03AL","longitude":"-86.047203064"}]}
{"requestType":"find", "match":"sandy", "limit":5, "found":18, "places":[{"name":"SandyRiverAirport","latitude":"45.401798248291016","longitude":"-122.22899627685547","id":"03S","altitude":"704","municipality":"Sandy","type":"airport","region":"Oregon","country":"UnitedStates"},{"name":"BigSandyMedicalCenterHeliport","latitude":"48.1796989440918","longitude":"-110.10900115966797","id":"0MT2","altitude":"2750","municipality":"BigSandy","type":"heliport","region":"Montana","country":"UnitedStates"},{"name":"BigSandyAirpark","latitude":"36.279722","longitude":"-88.043611","id":"39TN","altitude":"632","municipality":"BigSandy","type":"other","region":"Tennessee","country":"UnitedStates"},{"name":"SandyPointAirport","latitude":"38.488806","longitude":"-76.643633","id":"62MD","altitude":"20","municipality":"PrinceFrederick","type":"airport","region":"Maryland","country":"UnitedStates"},{"name":"SandyCreekAirpark","latitude":"30.102399826049805","longitude":"-85.46240234375","id":"75FL","altitude":"13","municipality":"PanamaCity","type":"other","region":"Florida","country":"UnitedStates"}]}
{“requestType”:”find", "match":"Edward", "limit":1, "found":1, "places":[{"name":"EdwardHospitalHeliport","latitude":"41.76060104370117","longitude":"-88.15029907226562","id":"LL11","altitude":"880","municipality":"Naperville","type":"heliport"}],"where":["Naperville]"}
{"requestType":"find", "match":"Singapore", "limit":5, "found":1, "places":[{"name":"SingaporeChangiAirport","latitude":"1.35019","longitude":"103.994003","id":"WSSS","municipality":"Singapore"}]}
{"requestType":"find", "match":"flora", "limit":1, "found":37, "places":[{"name":"LaFloraAirport","latitude":"5.209722","longitude":"-71.810556","id":"SK-093","municipality":"SanLuisDePalenque","type":"small_airport",}]}
{"requestType":"find", "match":"GrandJunction", "limit":2, "found":1, "places":[{"name":"GrandJunctionRegionalAirport","latitude":"39.1222307","longitude":"-108.5291468","id":"KGEG","altitude":"1465","municipality":"GrandJunction","type":"airport","region":"Colorado","country":"UnitedStates","url":"https://www.gjairport.com/"}]}
{"requestType":"find", "match":"texas", "limit":5, "found":35, "places":[{"name":"LittleTexasAirport","latitude":"32.45349884033203","longitude":"-85.55819702148438","id":"27AL","altitude":"500","municipality":"Tuskegee","type":"small_airport","region":"Alabama","country":"UnitedStates"},{"name":"TexasCreekHeliport","latitude":"38.409400939941406","longitude":"-105.58499908447266","id":"3CO5","altitude":"6250","municipality":"TexasCreek","type":"heliport","region":"Colorado","country":"UnitedStates"},{"name":"TexasEasternTransmissionMaintenanceHqHeliport","latitude":"30.223800659179688","longitude":"-93.12930297851562","id":"LA27","altitude":"15","municipality":"LakeCharles","type":"heliport","region":"Louisiana","country":"UnitedStates"},{"name":"TexasCountyMemorialHospitalHeliport","latitude":"37.3170013428","longitude":"-91.9615020752","id":"MU44","altitude":"1228","municipality":"Houston","type":"heliport","region":"Missouri","country":"UnitedStates"},{"name":"TexasGulfCoastRegionalAirport","latitude":"29.1086006165","longitude":"-95.462097168","id":"KLBX","altitude":"25","municipality":"Angleton/LakeJackson","type":"medium_airport","region":"Texas","country":"UnitedStates"}]}
{"requestType":"find", "match":"-1", "limit":3, "found":15, "places":[{"latitude":"30.138500213623047","name":"OpenA-1RanchAirport","index":"1","id":"3LA8","longitude":"-93.22789764404297"},{"latitude":"35.38330078125","name":"X-1RanchUpperHeadquartersAirport","index":"2","id":"52AZ","longitude":"-113.3010025024414"},{"latitude":"32.71979904174805","name":"Kgtv-10ParkingLotHeliport","index":"3","id":"8CA9","longitude":"-117.0979995727539"}]}
{"requestType":"find", "match":"Ljubljana", "limit":1, "found":1, "places":[{"name":"LjubljanaJožePu?nikAirport","latitude":"46.223701","longitude":"14.4576","id":"LJLJ","altitude":"1273","municipality":"Ljubljana","type":"large_airport","region":"SI-061","country":"SI","url":"http://en.wikipedia.org/wiki/Ljubljana_Jo%C5%BEe_Pu%C4%8Dnik_Airport"}]",type":["airport"]}
{"requestType":"find", "match":"aab", "limit":10, "found":2, "places":[{"latitude":"64.19090271","name":"Godthaab/NuukAirport","id":"BGGH","longitude":"-51.6781005859"},{"latitude":"0.058189","name":"DadaabAirstrip","id":"KE-0108","longitude":"40.318055"}]}
{"requestType":"find", "match":"heliport", "limit":2, "found":20, "places":[{"name":"TotalRfHeliport","latitude":"40.07080078125","longitude":"-74.93360137939453","id":"00A","altitude":"11","municipality":"Bensalem","type":"heliport"},{"name":"NewportHospital&ClinicHeliport","latitude":"35.608699798583984","longitude":"-91.25489807128906","id":"00AR","altitude":"237","municipality":"Newport","type":"airport"}]}
{"requestType":"find", "match":"university", "limit":4, "found":80, "places":[{"name":"LoyolaUniversityMedicalCenterHeliport","latitude":"41.86090087890625","longitude":"-87.8364028930664","id":"0IL1","altitude":"623","type":"university","municipality":"Broadview","region":"Illinois","country":"UnitedStates"},{"name":"UniversityofKansasHospitalHeliport","latitude":"39.056277","longitude":"-94.608892","id":"10KS","altitude":"958","type":"university","municipality":"KansasCity","region":"Kansas","country":"UnitedStates"},{"name":"HealthSciencesCenterUniversityHospitalHeliport","latitude":"40.90760040283203","longitude":"-73.11620330810547","id":"13NY","altitude":"190","type":"university","municipality":"StonyBrook","region":"NewYork","country":"UnitedStates"},{"name":"StanfordUniversityHospitalCenterHeliport","latitude":"37.43550109863281","longitude":"-122.17500305175781","id":"15CA","altitude":"84","type":"university","municipality":"PaloAlto","region":"California","country":"Colombia"}]}
{“requestType":"find", "match":"000", "limit":20, "found":9, "places":[{"latitude":"27.547300338745117","name":"Scott2000Airport","index":"1","id":"23FD","longitude":"-80.66200256347656"},{"latitude":"49.09111022949219","name":"Technopole2000Heliport","index":"2","id":"FR-0114","longitude":"6.231389045715332"},{"latitude":"44.17166519165039","name":"Isola2000Airport","index":"3","id":"FR-0284","longitude":"7.163055896759033"},{"latitude":"45.30993","name":"AviosuperficiePegasus2000","index":"4","id":"IT-0055","longitude":"7.665453"},{"latitude":"41.35775","name":"PegasoClub2000","index":"5","id":"IT-0127","longitude":"13.149013"},{"latitude":"45.5444444","name":"CampodiVolo\"Rovasenda2000\","index":"6","id":"IT-0269","longitude":"8.2791667"},{"latitude":"-22.892221450805664","name":"Tower2000Heliport","index":"7","id":"SDYK","longitude":"-43.11805725097656"},{"latitude":"-33.413889","name":"Isidora3000Heliport","index":"8","id":"SHIS","longitude":"-70.597778"},{"latitude":"-23.56166648864746","name":"Torre2000Heliport","index":"9","id":"SIIH","longitude":"-46.688331604003906"}]}
{"requestType":"find", "match":"jak", "limit":1, "found":13, "places":[{"name":"JakeGarnAirport","latitude":"40.26369857788086","longitude":"-112.02100372314453","id":"17U","municipality":"EagleMountain","type":"small_airport","continent":"NA"}]}
{"requestType":"find", "match":"ping", "limit":1, "found":41, "places":[{"name":"PingstonAeroworksAirport","latitude":"42.810298919677734","longitude":"-84.08309936523438","id":"54MI","altitude":"880","municipality":"Bryon","type":"small_airport"}]}
{"requestType":"find", "match":"Dwight", "limit":1, "found":7, "places":[{"name":"DwightField","latitude":"46.61709976196289","longitude":"-122.82599639892578","id":"0WA1","altitude":"350","municipality":"Chehalis","region":"US-WA","country":"US"}]}
{"requestType":"find", "match":"wizard", "limit":20, "found":0, "places":[]}
{"requestType":"find", "match":"Jupiter", "limit":3, "found":2, "places":[{"name":"JupiterMedicalCenterHeliport","latitude":"26.925600051879883","longitude":"-80.09609985351562","id":"60FL","altitude":"15","municipality":"Jupiter","type":"heliport"},{"name":"JupiterIPlatformHelipad","latitude":"19.520472","longitude":"-92.184506","id":"MX-0184","altitude":"50","municipality":"ZondaDeCampeche","type":"heliport"}]}
{"requestType":"find", "match":"NULL", "limit":10, "found":3, "places":[{"id":"73II","name":"NulltownWingnutsUltralightport","latitude":"39.57170104980469","longitude":"-85.15859985351562"},{"id":"YNUB","name":"NullaborMotelAirport","latitude":"-31.441699981689453","longitude":"130.90199279785156"},{"id":"YNUL","name":"NullagineAirport","latitude":"-21.913299560546875","longitude":"120.197998046875"}]}
{"requestType":"find", "match":"world", "limit":14, "found":3, "places":[{"name":"LtWorldAirport","latitude":"33.76750183105469","longitude":"-84.06829833984375","id":"00GA","altitude":"700","municipality":"Lithonia","type":"small_airport","region":"US-GA","country":"US"},{"name":"TexasWorldSpeedwayHelistopNr1Heliportt","latitude":"30.54050064086914","longitude":"-96.22250366210938","id":"0TE8","altitude":"270","municipality":"CollegeStation","type":"heliport","region":"US-TX","country":"US"},{"name":"TexasWorldSpeedwayHelistopNr2Heliportt","latitude":"30.54050064086914","longitude":"-96.22250366210938","id":"0TE9","altitude":"270","municipality":"CollegeStation","type":"heliport","region":"US-TX","country":"US"}]}
{"requestType":"find", "match":"walnut", "limit":2, "found":7, "places":[{"name":"WalnutCreekAirport","latitude":"41.593299865722656","longitude":"-88.69170379638672","id":"49IL"},{"name":"WalnutHillAirport","latitude":"38.59510040283203","longitude":"-77.64610290527344","id":"58VA"}]}
{"requestType":"find", "match":"999888777", "limit":5, "found":0, "places":[]}
{"requestType":"find", "match":"colorado", "limit":3, "found":26, "places":[{"name":"ColoradoPlainsMedicalCenterHeliport","latitude":"40.2610917","longitude":"-103.7963389","id":"0CD1","altitude":"4356","municipality":"FortMorgan","type":"heliport","region":"Colorado","country":"UnitedStates"},{"name":"ColoradoAntiqueField","latitude":"40.122501373291016","longitude":"-105.1719970703125","id":"8CO7","altitude":"5069","municipality":"Niwot","type":"airport","region":"Colorado","country":"UnitedStates"},{"name":"ColoradodoOesteAirport","latitude":"-13.113405","longitude":"-60.524276","id":"BR-0080","altitude":","municipality":"ColoradodoOeste","type":"airport","region":"Roraima","country":"Brazil"}]}
{"requestType":"find", "match":"A1rp0rt", "limit":1, "found":0, "places":[]}
{"requestType":"find", "match":"tions", "limit":2, "found":17, "places":[{"name":"IlDeptofCorrections/LawrenceCountyHeliport","latitude":"38.7282981873","longitude":"-87.90809631350001","id":"34LL","altitude":"490","municipality":"Summer","type":"heliport","region":"Illinois","country":"UnitedStates"},{"name":"DelawareOperationsHeliport","latitude":"41.67060089111328","longitude":"-83.56719970703125","id":"49OI","altitude":"615","municipality":"Toledo","type":"heliport","region":"Ohio","country":"UnitedStates"}]}
{"requestType":"find", "match":"Riley", "limit":5, "found":10, "places":[{"id":"0FA5","name":"BrileyFarmSeaplaneBase","latitude":"28.5727778","longitude":"-81.6286111"},{"id":"12TN","name":"RileyCreekAirport","latitude":"35.823699951171875","longitude":"-84.53880310058594"},{"id":"1NC5","name":"RileyField","latitude":"35.93320083618164","longitude":"-78.34860229492188"},{"id":"23IN","name":"JWRileyHospitalForChildrenHeliport","latitude":"39.77690124511719","longitude":"-86.18060302734375"},{"id":"4IN7","name":"RileyField","latitude":"40.300899505615234","longitude":"-87.22920227050781"}]}
{"requestType":"find", "match":"rams", "limit":5, "found":7, "places":[{"name":"RamsyFarmAirport","id":"1MI4","latitude":"45.83890151977539","longitude":"-87.32240295410156","continent":"NA"},{"name":"Sudbury/RamseyLakeSeaplaneBase","id":"CNB8","latitude":"46.47999954223633","longitude":"-80.98529815673828","continent":"NA"},{"name":"BadBramstedtHeliport","id":"EDHX","latitude":"53.9428","longitude":"9.9055","continent":"EU"},{"name":"RamseleAirport","id":"ESUR","latitude":"63.490299224853516","longitude":"16.483400344848633","continent":"EU"},{"name":"RamsteinAirBase","id":"ETAR","latitude":"49.4369010925293","longitude":"7.600279808044434","continent":"EU"}]}
{"requestType":"find", "match":"miller", "limit":4, "found":56, "places":[{"continent":"NA","id":"03MI","latitude":"43.550899505615234","longitude":"-83.86219787597656","name":"HaroldMillerHeliport"},{"continent":"NA","id":"0II3","latitude":"40.62779998779297","longitude":"-86.03780364990234","name":"MillerStrip"},{"continent":"NA","id":"1NE6","latitude":"41.34080123901367","longitude":"-102.77799987792969","name":"MillerAirstrip"},{"continent":"NA","id":"25GA","latitude":"33.65959930419922","longitude":"-84.66300201416016","name":"MillerFarmAirport"}]}
{"requestType":"find", "match":"MerrillField", "limit":1, "found":1, "places":[{"name":"MerrillField","latitude":"61.2135009765625","longitude":"-149.843994140625","id":"PAMR","altitude":"137","municipality":"Anchorage","type":"medium_airport"}]}
{"requestType":"find", "match":"atlanta", "limit":1, "found":36, "places":[{"name":"AtlantaAirport","id":"55H","latitude":"43.813499450683594","longitude":"-115.13500213623047","municipality":"Atlanta"}]}
{“requestType":"find", "match":"%\"limit2;#HijackthelimitexpressionandsethighvaluetoDDOStheserver", "limit":1, "found":50427, "places":[{"continent":"NA","altitude":"11","iso_country":"US","latitude":"40.07080078125","name":"TotalRfHeliport","municipality":"Bensalem","iso_region":"US-PA","index":"1","id":"00A","longitude":"-74.93360137939453"},{"continent":"NA","altitude":"450","iso_country":"US","latitude":"59.94919968","name":"LowellField","municipality":"AnchorPoint","iso_region":"US-AK","index":"2","id":"00AK","longitude":"-151.695999146"}]}
{"requestType":"find", "match":"sean", "limit":10, "found":2, "places":[{"name":"SeanHeliport","latitude":"42.762901306152344","longitude":"-71.31529998779297","id":"NH93","altitude":"150","municipality":"Pelham","type":"heliport","region":"NewHampshire","country":"UnitedStates"},{"name":"RoseanneAirport","latitude":"35.618056","longitude":"-86.002","id":"43TN","altitude":"1050","municipality":"Morrison","type":"small_airport","region":"Tennessee","country":"UnitedStates"}]}
{"requestType":"find", "match":"rdes", "limit":0, "found":1, "places":[{"name":"CordesAirport","latitude":"34.305599212646484","longitude":"-112.16500091552734","id":"00AZ","altitude":"3810","municipality":"Cordes","type":"small_airport","continent":"NA"}]}
{"requestType":"find", "match":"%Stick", "limit":10, "found":1, "places":[{"name":"StickleCattleFarmsAirport","latitude":"38.31669998168945","longitude":"-91.78350067138672","id":"MO78","altitude":"700","municipality":"Belle"}]}
{"requestType":"find", "match":"chicken", "limit":1, "found":3, "places":[{"id":"3XA8","name":"ChickenStrip","latitude":"32.514167","longitude":"-97.595278"}]}
{"requestType":"find", "match":"ronaldo", "limit":5, "found":3, "places":[{"name":"EdifícioRonaldoSampaioFerreiraHeliport","id":"SIYU","latitude":"-23.599443435668945","longitude":"-46.68055725097656","continent":"SA","municipality":"SãoPaulo"},{"name":"HospitalMunicipalRonaldoGazollaHeliport","id":"SSHP","latitude":"-22.825556","longitude":"-43.347222","continent":"SA","municipality":"RioDeJaneiro"},{"name":"EstânciaAeronaldoAirport","id":"SWMZ","latitude":"-16.442777633666992","longitude":"-54.701942443847656","continent":"SA","municipality":"Rondonópolis"}]}
{"requestType":"find", "match":"estes", "limit":2, "found":3, "places":[{"name":"E.P.M.C.Heliport","latitude":"40.371700286865234","longitude":"-105.51599884033203","id":"3CO8","altitude":"7674","municipality":"EstesPark","type":"heliport","region":"Colorado","country":"UnitedStates"},{"name":"EstesAirport","latitude":"38.9833984375","longitude":"-84.66609954833984","id":"67KY","altitude":"890","municipality":"Florence","type":"small_airport","region":"Kentucky","country":"UnitedStates"}]}
{"requestType":"find", "match":"chicago", "limit":1, "found":35, "places":[{"id":"IL77","name":"AdvocateChristMedicalCenterHeliport","latitude":"41.724998474121094","longitude":"-87.72920227050781","municipality":"Chicago/OakLawn/","type":"heliport"}]}
{"requestType":"find", "match":"laser", "limit":17, "found":3, "places":[{"continent":"NA","id":"SN84","latitude":"39.27080154418945","longitude":"-94.98770141601562","name":"Blaser'sAirport","municipality":"Leavenworth","type":"small_airport"},{"continent":"NA","id":"NE85","latitude":"41.687198638916016","longitude":"-98.30259704589844","name":"GlaserAirport","municipality":"Spalding","type":"small_airport"},{"continent":"NA","id":"06TA","latitude":"30.90850067138672","longitude":"-97.11689758300781","name":"GlaserField","municipality":"Buckholts","type":"small_airport"}]}
{"requestType":"find", "match":"caw", "limit":10, "found":1, "places":[{"name":"CawleysSouthPrairieAirport","latitude":"47.15230178833008","longitude":"-122.09400177001953","altitude":"690","municipality":"SouthPrairie","type":"small_airport"}]}
{"requestType":"find", "match":"enzo", "limit":1, "found":13, "places":[{"name":"AviosuperficieRenzoStorai","latitude":"43.96583","longitude":"11.458056","id":"IT-0165","altitude":"889","municipality":"VicchiodelMugello(FI)","type":"small_airport","region":"Tuscany","country":"Italy","url":"http://www.aviostorai.com"}]}
{"requestType":"find", "match":"zyzz", "limit":10, "found":0, "places":[]}
{“requestType”:"find", "match":"%", "limit":10, "found":50427, "places":[{"name":"TotalRfHeliport","latitude":"40.07080078125","longitude":"-74.93360137939453","id":"00A","altitude":"11","municipality":"Bensalem","type":"heliport","region":"US-PA","country":"US"},{"name":"LowellField","latitude":"59.94919968","longitude":"-151.695999146","id":"00AK","altitude":"450","municipality":"AnchorPoint","type":"small_airport","region":"US-AK","country":"US"},{"name":"EppsAirpark","latitude":"34.86479949951172","longitude":"-86.77030181884766","id":"00AL","altitude":"820","municipality":"Harvest","type":"small_airport","region":"US-AL","country":"US"},{"name":"NewportHospital&ClinicHeliport","latitude":"35.608699798583984","longitude":"-91.25489807128906","id":"00AR","altitude":"237","municipality":"Newport","type":"heliport","region":"US-AR","country":"US"},{"name":"CordesAirport","latitude":"34.305599212646484","longitude":"-112.16500091552734","id":"00AZ","altitude":"3810","municipality":"Cordes","type":"small_airport","region":"US-AZ","country":"US"},{"name":"Goldstone/Gts/Airport","latitude":"35.350498199499995","longitude":"-116.888000488","id":"00CA","altitude":"3038","municipality":"Barstow","type":"small_airport","region":"US-CA","country":"US"},{"name":"CassField","latitude":"40.62220001220703","longitude":"-104.34400177001953","id":"00CO","altitude":"4830","municipality":"Briggsdale","type":"small_airport","region":"US-CO","country":"US"},{"name":"GrassPatchAirport","latitude":"28.64550018310547","longitude":"-82.21900177001953","id":"00FA","altitude":"53","municipality":"Bushnell","type":"small_airport","region":"US-FL","country":"US"},{"name":"RinghaverHeliport","latitude":"28.846599578857422","longitude":"-82.34539794921875","id":"00FD","altitude":"25","municipality":"Riverview","type":"heliport","region":"US-FL","country":"US"},{"name":"RiverOakAirport","latitude":"27.230899810791016","longitude":"-80.96920013427734","id":"00FL","altitude":"35","municipality":"Okeechobee","type":"small_airport","region":"US-FL","country":"US"}]}
{"requestType":"find", "match":"zz^*h(#m", "limit":10, "found":0, "places":[]}
{“requestType":"find", "match":"Salem", "limit":20, "found":2, "places":[{"name":"TntHeliport","latitude":"41.45289993286133","longitude":"-72.24960327148438","id":"07CT","altitude":"430","municipality":"Salem","type":"closed","region":"Connecticut","country":"UnitedStates"},{"name":"JerusalemAirport","latitude":"31.864700317383","longitude":"35.219200134277","id":"OJJR","altitude":"2485","municipality":"Jerusalem","type":"closed","region":"Jerusalem","country":"Palestine"}],"type":["closed"]}
{"requestType":"find", "match":"colorado", "limit":3, "found":26, "places":[{"name":"ColoradoPlainsMedicalCenterHeliport","latitude":"40.2610917","longitude":"-103.7963389","id":"0CD1","altitude":"4356","municipality":"FortMorgan","type":"heliport","region":"Colorado","country":"UnitedStates"},{"name":"ColoradoAntiqueField","latitude":"40.122501373291016","longitude":"-105.1719970703125","id":"8CO7","altitude":"5069","municipality":"Niwot","type":"airport","region":"Colorado","country":"UnitedStates"},{"name":"ColoradodoOesteAirport","latitude":"-13.113405","longitude":"-60.524276","id":"BR-0080","altitude":","municipality":"ColoradodoOeste","type":"airport","region":"Roraima","country":"Brazil"}]}
{"requestType":"find", "match":"hanoi", "limit":5, "found":3, "places":[{"name":"BachMaiAirfield","latitude":"20.993155822800002","longitude":"105.832993984","id":"VN-0003","municipality":"Hanoi"},{"name":"GiaLamAirBase","latitude":"21.04050064086914","longitude":"105.88600158691406","id":"VVGL","municipality":"Hanoi"},{"name":"NoiBaiInternationalAirport","latitude":"21.221200942993164","longitude":"105.80699920654297","id":"VVNB","municipality":"Hanoi"}]}
{"requestType":"find", "match":"pee", "limit":5, "found":25, "places":[{"name":"LapeerFlyerAirport","latitude":"42.43840026855469","longitude":"-76.08879852294922","id":"0NK6","altitude":"1280","municipality":"Marathon"},{"name":"TexasWorldSpeedwayHelistopNr1Heliport","latitude":"30.54050064086914","longitude":"-96.222503662","id":"0TE8","altitude":"270","municipality":"CollegeStation"},{"name":"TexasWorldSpeedwayHelistopNr2Heliport","latitude":"30.539600372314453","longitude":"-96.22609710","id":"id=0TE9","altitude":"270","municipality":"CollegeStation"}]}
{"requestType":"find", "match":"CSU", "limit":5, "found":0, "places":[]}
{"requestType":"find", "match":"xxx", "limit":10, "found":0, "places":[]}
{"requestType":"find", "match":"newark", "limit":3, "found":5, "places":[{"continent":"NA","id":"0NJ8","latitude":"40.702301025390625","longitude":"-74.15070343017578","name":"PortNewarkHelistop"},{"continent":"NA","id":"1JY1","latitude":"40.7332000732","longitude":"-74.1577987671","name":"Newark/JerseyStreetHeliport"},{"continent":"NA","id":"JY11","latitude":"40.77730178833008","longitude":"-74.3584976196289","name":"NewarkAcademyHeliport"}]}
{"requestType":"find", "match":"price", "limit":20, "found":8, "places":[{"id":"SC89","latitude":34.474998474121094,"longitude":-79.39360046386719,"name":"PriceAirport","type":"small_airport"},{"id":"KPBH","latitude":45.70899963378906,"longitude":-90.40249633789062,"name":"PriceCountyAirport","type":"small_airport"},{"id":"80AR","latitude":35.500099182128906,"longitude":-90.2583999633789,"name":"PriceField","type":"small_airport"},{"id":"XS53","latitude":28.596099853515625,"longitude":-99.57140350341797,"name":"PriceRanchAirport","type":"small_airport"},{"id":"LA07","latitude":30.517499923706055,"longitude":-90.00830078125,"name":"PriceUltralightport","type":"small_airport"},{"id":"NM59","latitude":35.324799,"longitude":-106.667,"name":"Price'sDairyAirport","type":"closed"},{"id":"K9G2","latitude":42.80759811401367,"longitude":-83.7698974609375,"name":"PricesAirport","type":"small_airport"},{"id":"AU-TPR","latitude":-22.746000289900003,"longitude":117.869003296,"name":"TomPriceAirport","type":"small_airport"},]}
{"requestType":"find", "match":"RedDeer", "limit":5, "found":5, "places":[{"name":"RedDeer/South40Airstrip","latitude":"52.261944","longitude":"-113.951389","id":"CRD4","altitude":"3040","municipality":"NULL","type":"small_airport","region":"Alberta","country":"Canada"},{"name":"RedDeer/TruantAirfield","latitude":"52.287042840400005","longitude":"-113.913180828","id":"CRD5","altitude":"3100","municipality":"NULL","type":"small_airport","region":"Alberta","country":"Canada"},{"name":"RedDeerForestryAirport","latitude":"51.65140151977539","longitude":"-115.23899841308594","id":"CFR7","altitude":"4646","municipality":"RedDeerForestry","type":"small_airport","region":"Alberta","country":"Canada"},{"name":"RedDeerRegionalAirport","latitude":"52.18220138549805","longitude":"-113.89399719238281","id":"CYQF","altitude":"2968","municipality":"RedDeer","type":"medium_airport","region":"Alberta","country":"Canada"},{"name":"RedDeerRegionalHospitalCentreHeliport","latitude":"52.26190185546875","longitude":"-113.81600189208984","id":"CRD3","altitude":"2877","municipality":"RedDeer","type":"heliport","region":"Alberta","country":"Canada"}]}
{"requestType":"find", "match":"spill", "limit":15, "found":2, "places":[{"continent":"NA","id":"LA76","latitude":"30.229400634765625","longitude":"-91.90840148925781","name":"SpillersClubAirport"},{"continent":"NA","id":"MU16","latitude":"40.000301361083984","longitude":"-93.78990173339844","name":"SpillmanField"}]}
{"requestType":"find", "match":"java", "limit":1, "found":4, "places":[{"continent":"OC","altitude":"10","iso_country":"SB","latitude":"-5.515","name":"OntongJavaAtollAirstrip","municipality":"OntongJavaAtoll","iso_region":"SB-ML,index=1","id":"AGGQ","longitude":"159.527777778"}]}
{"requestType":"find", "match":"st", "limit":1, "found":6863, "places":[{"name":"Goldstone/Gts/Airport","id":"00CA","latitude":"35.350498199499995","longitude":"-116.888000488","continent":"NA","municipality":"Barstow"}]}
{"requestType":"find", "match":"spang", "limit":1, "found":8, "places":[{"name":"SpangdahlemAirBase","latitude":"49.9726982","longitude":"6.6925001","id":"SPM","altitude":"1151","municipality":"Spangdahlem","country":"Germany","type":"medium_airport"}]}
{"requestType":"find", "match":", "limit":10, "found":0, "places":[]}
{"requestType":"find", "match":"mundelein", "limit":3, "found":0, "places":[]}
{"requestType":"find", "match":"yuan", "limit":6, "found":13, "places":[{"name":"HongyuanAirport","latitude":"32.53154","longitude":"102.35224","id":"AHJ","altitude":"11600","municipality":"Aba","type":"medium_airport"},{"name":"YuanmouAirBase","latitude":"25.737499237061","longitude":"101.88200378418","id":"CN-0012","altitude":"3810","municipality":"Yuanmou","type":"medium_airport"},{"name":"ZhangjiakouNingyuanAirport","latitude":"40.7386016846","longitude":"114.930000305","id":"CN-0024","altitude":"2347","municipality":"Zhangjiakou","type":"medium_airport"},{"name":"KaiyuanAirBase","latitude":"42.52579879760742","longitude":"123.98200225830078","id":"CN-0197","altitude":"NULL","municipality":"NULL","type":"medium_airport"},{"name":"TaoyuanAirBase","latitude":"25.05660057067871","longitude":"121.2442626953125","id":"RCGM","altitude":"144","municipality":"TaoyuanCity","type":"medium_airport"},{"name":"TaiwanTaoyuanInternationalAirport","latitude":"25.0777","longitude":"121.233002","id":"RCTP","altitude":"106","municipality":"Taipei","type":"large_airport"}]}
{"requestType":"find", "match":"Colorado", "limit":1, "found":26, "places":[{"name":"BarradelColoradoAirport","latitude":"10.768699645996094","longitude":"-83.58560180664062","id":"MRBC","altitude":"3","municipality":"Pococi","type":"medium_airport","region":"Limon","country":"CostaRica"}]}
{"requestType":"find", "match":"Kleis", "limit":15, "found":1, "places":[{"name":"KleisAirport","latitude":"42.29999923706055","longitude":"-90.7500991821289","id":"IA30","altitude":"1050","municipality":"Zwingle","type":"small_airport"}]}
{"requestType":"find", "match":"Skyote", "limit":1, "found":2, "places":[{"name":"Skyote","latitude":"40.75803","longitude":"-106.97200","id":"CD02","altitude":"8171","municipality":"SteamboatSprings","type":"airport","region":"CO","country":"UnitedStates"}]}
{"requestType":"find", "match":"air", "limit":1, "found":1, "places":[{"name":"EppsAirpark","latitude":"34.86479949951172","longitude":"-86.77030181884766","altitude":"820","municipality":"Harvest","type":"small_airport"}]}
{"requestType":"find", "match":"apple", "limit":18, "found":13, "places":[{"latitude":"40.1432991027832","name":"AppleAirport","index":"1","id":"0OH7","longitude":"-84.1718978881836"},{"latitude":"34.26029968261719","name":"Apple1Heliport","index":"2","id":"11GE","longitude":"-84.06639862060547"},{"latitude":"40.391998291015625","name":"ApplegateAirport","index":"3","id":"15MO","longitude":"-92.56549835205078"},{"latitude":"39.581199645996094","name":"HanshellFlyingAppleAirport","index":"4","id":"84OH","longitude":"-83.6510009765625"},{"latitude":"50.9904","name":"AppletonField","index":"5","id":"CAP9","longitude":"-113.3703"},{"latitude":"45.461899","name":"AppleRiverAirport","index":"6","id":"CCA7","longitude":"-64.821404"},{"latitude":"50.8091890506","name":"RAFAppledram","index":"7","id":"GB-0098","longitude":"-0.807495117188"},{"latitude":"34.575298309299995","name":"AppleValleyAirport","index":"8","id":"KAPV","longitude":"-117.185997009"},{"latitude":"45.227500915527344","name":"AppletonMunicipalAirport","index":"9","id":"KAQP","longitude":"-96.00430297851562"},{"latitude":"44.258098602299995","name":"AppletonInternationalAirport","index":"10","id":"KATW","longitude":"-88.5190963745"},{"latitude":"45.67839813232422","name":"AppleValleyAirport","index":"11","id":"OR61","longitude":"-123.18599700927734"},{"latitude":"37.76259994506836","name":"AppleGroveAirport","index":"12","id":"VA31","longitude":"-76.34629821777344"},{"latitude":"-27.20133399963379","name":"ApplebyAirport","index":"13","id":"ZA-0022","longitude":"26.903499603271484"}]}
{"requestType":"find", "match":"purple", "limit":1, "found":1, "places":[{"name":"PurpleSpringsAirport","latitude":"49.6877","longitude":"-111.875202","id":"CA-0669","altitude":"2870","municipality":"PurpleSprings","type":"closed"}]}
{“requestType":"find", "match":"st", "limit":3, "found":6, "places":[{"name":"BaileyGenerationStationHeliport","latitude":"41.644500732421875","longitude":"-87.122802734375","id":"00II","altitude":"600","municipality":"Chesterton","type":"heliport","region":"Indiana","country":"UnitedStates"},{"name":"StMaryMedicalCenterHeliport","latitude":"41.51139831542969","longitude":"-87.2605972290039","id":"00IN","altitude":"634","municipality":"Hobart","type":"heliport","region":"Indiana","country":"UnitedStates"},{"name":"StMaryMedicalCenterHeliport","latitude":"33.778900146484375","longitude":"-118.18599700927734","id":"50CA","altitude":"174","municipality":"LongBeach","type":"heliport","region":"California","country":"UnitedStates"}],"type":["heliport"],"where":["UnitedStates"]}
