{
	  "requestType"   : "find",
	  "match"         : "texas",
	  "limit"         : 5,
	  "found"         : 35,
	  "places"        : [{"name":" Little Texas Airport",
	                      "latitude":" 32.45349884033203 ",
	                      "longitude":" -85.55819702148438 ",
	                      "id": "27AL",
	                      "altitude":"500",
	                      "municipality":"Tuskegee",
	                      "type":"small_airport",
	                      "region":"Alabama",
	                      "country":"United States"
	                      },
	                     {"name":"Texas Creek Heliport",
	                      "latitude":"38.409400939941406",
	                      "longitude":"-105.58499908447266",
	                      "id":"3CO5",
	                      "altitude":"6250",
	                      "municipality":"Texas Creek",
	                      "type":"heliport",
	                      "region":"Colorado",
	                      "country":"United States"
	                      },
                      {"name":"Texas Eastern Transmission Maintenance Hq Heliport",
	                      "latitude":"30.223800659179688",
	                      "longitude":"-93.12930297851562",
	                      "id":"LA27",
	                      "altitude":"15",
	                      "municipality":"Lake Charles",
	                      "type":"heliport",
	                      "region":"Louisiana",
	                      "country":"United States"
	                      },
                      {"name":"Texas County Memorial Hospital Heliport",
	                      "latitude":"37.3170013428",
	                      "longitude":"-91.9615020752",
	                      "id":"MU44",
	                      "altitude":"1228",
	                      "municipality":"Houston",
	                      "type":"heliport",
	                      "region":"Missouri",
	                      "country":"United States"
	                      },
                      {"name":"Texas Gulf Coast Regional Airport",
	                      "latitude":"29.1086006165",
	                      "longitude":"-95.462097168",
	                      "id":"KLBX",
	                      "altitude":"25",
	                      "municipality":"Angleton/Lake Jackson",
	                      "type":"medium_airport",
	                      "region":"Texas",
	                      "country":"United States"
	                      }]
	}
