{
  "requestType"    : "find",
  "match"          : "los angeles",
  "type"		   : ["airport"],
  "limit"          : 19,
  "found"          : 6,
  "places"         : [{"name": "Bahía de los Ángeles Airport", 
                       "latitude": "28.9786", 
                       "longitude": "-113.560997",
                       "id":"BHL",
                       "altitude":"34",
                       "municipality":"Bahía de los Ángeles",
                       "type":"airport",
                       "region":"California",
                       "country":"United States"
                       },
					   {"name": "Cholguahue Airport", 
                       "latitude": "-37.469722747802734", 
                       "longitude": "-72.13861083984375",
                       "id":"SCGH",
                       "altitude":"732",
                       "municipality":"Los Angeles",
                       "type":"airport",
                       "region":"California",
                       "country":"United States"
                       },
                     {"name": "Los Angeles Airstrip", 
                       "latitude": "16.043668785199998", 
                       "longitude": "-91.06678962710001",
                       "id":"GT-0017",
                       "altitude":"NULL",
                       "municipality":"Los Angeles",
                       "type":"airport",
                       "region":"California",
                       "country":"United States"
                       },
                     {"name": "Los Angeles International Airport", 
                       "latitude": "33.94250107", 
                       "longitude": "-118.4079971",
                       "id":"KLAX",
                       "altitude":"125",
                       "municipality":"Los Angeles",
                       "type":"airport",
                       "region":"California",
                       "country":"United States"
                       },
                     {"name": "María Dolores Airport", 
                       "latitude": "-37.40169906616211", 
                       "longitude": "-118.413002014",
                       "id":"SCGE",
                       "altitude":"374",
                       "municipality":"Los Angeles",
                       "type":"airport",
                       "region":"California",
                       "country":"United States"
                       },
                     {"name": "Whiteman Airport", 
                       "latitude": "34.2593002319", 
                       "longitude": "-118.413002014",
                       "id":"KWHP",
                       "altitude":"1003",
                       "municipality":"Los Angeles",
                       "type":"airport",
                       "region":"California",
                       "country":"United States"
                       }]
}
