{
	"requestType": "find",
	"match": "and",
	"limit": 10,
	"found": 2265,
	"places": [{
		"id": "00MT",
		"name": "Sands Ranch Airport",
		"latitude": "48.537498474121094",
		"longitude": "-109.70500183105469",
		"altitude": "2600",
		"type": "small_airport",
		"municipality": "Havre",
		"region": "Montana",
		"country": "United States",
		"continent": "North America"
	},
	{
		"id": "01AL",
		"name": "Ware Island Airport",
		"latitude": "32.94599914550781",
		"longitude": "-86.51390075683594",
		"altitude": "344",
		"type": "small_airport",
		"municipality": "Clanton",
		"region": "Alabama",
		"country": "United States",
		"continent": "North America"
	},
	{
		"id": "01LL",
		"name": "Schumaier Restricted Landing Area",
		"latitude": "38.12580108642578",
		"longitude": "-89.46389770507812",
		"altitude": "555",
		"type": "small_airport",
		"municipality": "Pinckneyville",
		"region": "Illinois",
		"country": "United States",
		"continent": "North America"
	},
	{
		"id": "01MA",
		"name": "Compaq Andover Heliport",
		"latitude": "42.625099182128906",
		"longitude": "-71.18009948730469",
		"altitude": "140",
		"type": "heliport",
		"municipality": "Andover",
		"region": "Massachusetts",
		"country": "United States",
		"continent": "North America"
	},
	{
		"id": "02KS",
		"name": "Jmj Landing Airport",
		"latitude": "39.222198486328125",
		"longitude": "-96.0552978515625",
		"altitude": "1170",
		"type": "small_airport",
		"municipality": "St Marys",
		"region": "Kansas",
		"country": "United States",
		"continent": "North America"
	},
	{
		"id": "02NH",
		"name": "Iroquois Landing Seaplane Base",
		"latitude": "44.657100677490234",
		"longitude": "-71.21910095214844",
		"altitude": "1180",
		"type": "seaplane_base",
		"municipality": "Dummer",
		"region": "New Hampshire",
		"country": "United States",
		"continent": "North America"
	},
	{
		"id": "03MN",
		"name": "Nauerth Land Ranch Airport",
		"latitude": "43.62519836425781",
		"longitude": "-95.22470092773438",
		"altitude": "1435",
		"type": "small_airport",
		"municipality": "Lakefield",
		"region": "Minnesota",
		"country": "United States",
		"continent": "North America"
	},
	{
		"id": "03S",
		"name": "Sandy River Airport",
		"latitude": "45.401798248291016",
		"longitude": "-122.22899627685547",
		"altitude": "704",
		"type": "small_airport",
		"municipality": "Sandy",
		"region": "Oregon",
		"country": "United States",
		"continent": "North America"
	},
	{
		"id": "03TN",
		"name": "Eagles Landing Heliport",
		"latitude": "35.92250061035156",
		"longitude": "-83.57939910888672",
		"altitude": "1000",
		"type": "heliport",
		"municipality": "Sevierville",
		"region": "Tennessee",
		"country": "United States",
		"continent": "North America"
	},
	{
		"id": "04OR",
		"name": "Collins Landing Strip",
		"latitude": "44.7499008179",
		"longitude": "-120.200996399",
		"altitude": "1500",
		"type": "small_airport",
		"municipality": "Mitchell",
		"region": "Oregon",
		"country": "United States",
		"continent": "North America"
	}]
}
